{"type":"FeatureCollection","features":[{"type":"Feature","properties":{"name":"Work"},"geometry":{"coordinates":[-0.011515929842857986,51.49730482378234],"type":"Point"}},{"type":"Feature","properties":{"name":"Kindergarten"},"geometry":{"coordinates":[-0.018862545619327875,51.51009687670947],"type":"Point"}},{"type":"Feature","properties":{"name":"AvoidThisPlace"},"geometry":{"coordinates":[-0.010423865336008475,51.51670778613371],"type":"Point"}},{"type":"Feature","properties":{"name":"Home"},"geometry":{"coordinates":[-0.05629057464057041,51.51701668367147],"type":"Point"}},{"type":"Feature","properties":{"name":"FavoriteCafe"},"geometry":{"coordinates":[-0.043682193511585865,51.511332633619276],"type":"Point"}}]}